{"type":"FeatureCollection","features":[{"type":"Feature","properties":{"name":"Alaska","estimate":20557},"geometry":{"type":"Point","coordinates":[-154.493062,63.588753]}},{"type":"Feature","properties":{"name":"Alabama","estimate":181169},"geometry":{"type":"Point","coordinates":[-86.902298,32.318231]}},{"type":"Feature","properties":{"name":"Arkansas","estimate":978567.5},"geometry":{"type":"Point","coordinates":[-91.831833,35.20105]}},{"type":"Feature","properties":{"name":"Arizona","estimate":12552},"geometry":{"type":"Point","coordinates":[-111.093731,34.048928]}},{"type":"Feature","properties":{"name":"California","estimate":4092150.5},"geometry":{"type":"Point","coordinates":[-119.417932,36.778261]}},{"type":"Feature","properties":{"name":"Colorado","estimate":625357},"geometry":{"type":"Point","coordinates":[-105.782067,39.550051]}},{"type":"Feature","properties":{"name":"Connecticut","estimate":1356},"geometry":{"type":"Point","coordinates":[-73.087749,41.603221]}},{"type":"Feature","properties":{"name":"District of Columbia","estimate":1356},"geometry":{"type":"Point","coordinates":[-77.033418,38.905985]}},{"type":"Feature","properties":{"name":"Delaware","estimate":99413.1},"geometry":{"type":"Point","coordinates":[-75.52767,38.910832]}},{"type":"Feature","properties":{"name":"Florida","estimate":5677},"geometry":{"type":"Point","coordinates":[-81.515754,27.664827]}},{"type":"Feature","properties":{"name":"Georgia","estimate":472},"geometry":{"type":"Point","coordinates":[-82.907123,32.157435]}},{"type":"Feature","properties":{"name":"Hawaii","estimate":314352},"geometry":{"type":"Point","coordinates":[-155.665857,19.898682]}},{"type":"Feature","properties":{"name":"Iowa","estimate":239.6},"geometry":{"type":"Point","coordinates":[-93.097702,41.878003]}},{"type":"Feature","properties":{"name":"Idaho","estimate":313},"geometry":{"type":"Point","coordinates":[-114.742041,44.068202]}},{"type":"Feature","properties":{"name":"Illinois","estimate":2168},"geometry":{"type":"Point","coordinates":[-89.398528,40.633125]}},{"type":"Feature","properties":{"name":"Indiana","estimate":34581},"geometry":{"type":"Point","coordinates":[-85.602364,40.551217]}},{"type":"Feature","properties":{"name":"Kansas","estimate":7950},"geometry":{"type":"Point","coordinates":[-98.484246,39.011902]}},{"type":"Feature","properties":{"name":"Kentucky","estimate":5880},"geometry":{"type":"Point","coordinates":[-84.270018,37.839333]}},{"type":"Feature","properties":{"name":"Louisiana","estimate":1032},"geometry":{"type":"Point","coordinates":[-92.145024,31.244823]}},{"type":"Feature","properties":{"name":"Massachusetts","estimate":930},"geometry":{"type":"Point","coordinates":[-71.382437,42.407211]}},{"type":"Feature","properties":{"name":"Maryland","estimate":834},"geometry":{"type":"Point","coordinates":[-76.641271,39.045755]}},{"type":"Feature","properties":{"name":"Maine","estimate":1131},"geometry":{"type":"Point","coordinates":[-69.445469,45.253783]}},{"type":"Feature","properties":{"name":"Michigan","estimate":8838},"geometry":{"type":"Point","coordinates":[-85.602364,44.314844]}},{"type":"Feature","properties":{"name":"Minnesota","estimate":22035.2},"geometry":{"type":"Point","coordinates":[-94.6859,46.729553]}},{"type":"Feature","properties":{"name":"Missouri","estimate":17940},"geometry":{"type":"Point","coordinates":[-91.831833,37.964253]}},{"type":"Feature","properties":{"name":"Mississippi","estimate":369633},"geometry":{"type":"Point","coordinates":[-89.398528,32.354668]}},{"type":"Feature","properties":{"name":"Montana","estimate":7611},"geometry":{"type":"Point","coordinates":[-110.362566,46.879682]}},{"type":"Feature","properties":{"name":"North Carolina","estimate":259275.1},"geometry":{"type":"Point","coordinates":[-79.0193,35.759573]}},{"type":"Feature","properties":{"name":"North Dakota","estimate":88},"geometry":{"type":"Point","coordinates":[-101.002012,47.551493]}},{"type":"Feature","properties":{"name":"Nebraska","estimate":11919},"geometry":{"type":"Point","coordinates":[-99.901813,41.492537]}},{"type":"Feature","properties":{"name":"New Hampshire","estimate":109512.9},"geometry":{"type":"Point","coordinates":[-71.572395,43.193852]}},{"type":"Feature","properties":{"name":"New Jersey","estimate":1123},"geometry":{"type":"Point","coordinates":[-74.405661,40.058324]}},{"type":"Feature","properties":{"name":"New Mexico","estimate":12874.8},"geometry":{"type":"Point","coordinates":[-105.032363,34.97273]}},{"type":"Feature","properties":{"name":"Nevada","estimate":3782},"geometry":{"type":"Point","coordinates":[-116.419389,38.80261]}},{"type":"Feature","properties":{"name":"New York","estimate":1551},"geometry":{"type":"Point","coordinates":[-74.217933,43.299428]}},{"type":"Feature","properties":{"name":"Ohio","estimate":102302.3},"geometry":{"type":"Point","coordinates":[-82.907123,40.417287]}},{"type":"Feature","properties":{"name":"Oklahoma","estimate":1141612.5},"geometry":{"type":"Point","coordinates":[-97.092877,35.007752]}},{"type":"Feature","properties":{"name":"Oregon","estimate":2997},"geometry":{"type":"Point","coordinates":[-120.554201,43.804133]}},{"type":"Feature","properties":{"name":"Pennsylvania","estimate":85},"geometry":{"type":"Point","coordinates":[-77.194525,41.203322]}},{"type":"Feature","properties":{"name":"Rhode Island","estimate":19636},"geometry":{"type":"Point","coordinates":[-71.477429,41.580095]}},{"type":"Feature","properties":{"name":"South Carolina","estimate":4207},"geometry":{"type":"Point","coordinates":[-81.163725,33.836081]}},{"type":"Feature","properties":{"name":"South Dakota","estimate":256826},"geometry":{"type":"Point","coordinates":[-99.901813,43.969515]}},{"type":"Feature","properties":{"name":"Tennessee","estimate":329735},"geometry":{"type":"Point","coordinates":[-86.580447,35.517491]}},{"type":"Feature","properties":{"name":"Texas","estimate":126},"geometry":{"type":"Point","coordinates":[-99.901813,31.968599]}},{"type":"Feature","properties":{"name":"Utah","estimate":5596},"geometry":{"type":"Point","coordinates":[-111.093731,39.32098]}},{"type":"Feature","properties":{"name":"Virginia","estimate":842370.2},"geometry":{"type":"Point","coordinates":[-78.656894,37.431573]}},{"type":"Feature","properties":{"name":"Vermont","estimate":8196},"geometry":{"type":"Point","coordinates":[-72.577841,44.558803]}},{"type":"Feature","properties":{"name":"Washington","estimate":1785},"geometry":{"type":"Point","coordinates":[-120.740139,47.751074]}},{"type":"Feature","properties":{"name":"Wisconsin","estimate":339782.6},"geometry":{"type":"Point","coordinates":[-88.787868,43.78444]}},{"type":"Feature","properties":{"name":"West Virginia","estimate":""},"geometry":{"type":"Point","coordinates":[-80.454903,38.597626]}},{"type":"Feature","properties":{"name":"Wyoming"},"geometry":{"type":"Point","coordinates":[-107.290284,43.075968]}}]}
